{
   "chargers": [
        {
            "ID": 129726,
            "Title": "ABC Särkisalmi",
            "AddressLine1": "Rinnekatu 1",
            "Town": "Särkisalmi",
            "StateOrProvince": null,
            "Postcode": "59310",
            "Latitude": 61.6037845419238,
            "Longitude": 29.4829909074841,
            "PowerKW": 50.0,
            "Status": "Free",
            "Code": "A2C3",
            "Type": "Fast"
        },
        {
            "ID": 129727,
            "Title": "Neste K-Liikenneasema Linnatuuli (to south)",
            "AddressLine1": "Helsingintie 1426",
            "Town": "Janakkala",
            "StateOrProvince": "Kanta-Häme",
            "Postcode": "12400",
            "Latitude": 60.8542324848567,
            "Longitude": 24.5964551665738,
            "PowerKW": 22.0,
            "Status": "Free",
            "Code": "A4C8",
            "Type": "Slow"
        },
        {
            "ID": 129725,
            "Title": "K-Citymarket Veturi, Kouvola",
            "AddressLine1": "Tervasharjunkatu 1",
            "Town": "Kuusankoski",
            "StateOrProvince": null,
            "Postcode": "45720",
            "Latitude": 60.8758578849085,
            "Longitude": 26.6537519891262,
            "PowerKW": 50.0,
            "Status": "Free",
            "Code": "A4C9",
            "Type": "Fast"
        },
        {
            "ID": 129722,
            "Title": "Neste Aapiskukko, Pälkäne",
            "AddressLine1": "Valtatie 12",
            "Town": "Pälkäne",
            "StateOrProvince": null,
            "Postcode": "36600",
            "Latitude": 61.3472146532768,
            "Longitude": 24.2573409480467,
            "PowerKW": 50.0,
            "Status": "Free",
            "Code": "A4C1",
            "Type": "Fast"
        },
        {
            "ID": 129719,
            "Title": "Teboil Patalahti",
            "AddressLine1": "Patalahdentie 16",
            "Town": "Jämsä",
            "StateOrProvince": null,
            "Postcode": "42100",
            "Latitude": 61.8700689140419,
            "Longitude": 25.2352631203976,
            "PowerKW": 22.0,
            "Status": "Free",
            "Code": "A1C3",
            "Type": "Slow"
        },
        {
            "ID": 129717,
            "Title": "ABC Oritupa",
            "AddressLine1": "Valtatie 9,  Orivesi",
            "Town": "Orivesi",
            "StateOrProvince": "Tampereen seutukunta",
            "Postcode": "35300",
            "Latitude": 61.6711806671683,
            "Longitude": 24.2860133457555,
            "PowerKW": 50.0,
            "Status": "Free",
            "Code": "A8C1",
            "Type": "Fast"
        },
        {
            "ID": 129425,
            "Title": "Huuhkajankatu",
            "AddressLine1": "Huuhkajankatu",
            "Town": "Mikkeli",
            "StateOrProvince": "Mikkelin seutukunta",
            "Postcode": "50190",
            "Latitude": 61.6885115,
            "Longitude": 27.2996275,
            "PowerKW": 50.0,
            "Status": "Free",
            "Code": "A4C3",
            "Type": "Fast"
        },
        {
            "ID": 129714,
            "Title": "K-Citymarket Klaukkala",
            "AddressLine1": "Viirintie 9",
            "Town": "Klaukkala",
            "StateOrProvince": null,
            "Postcode": "01800",
            "Latitude": 60.3784795106246,
            "Longitude": 24.7584569461534,
            "PowerKW": 50.0,
            "Status": "Free",
            "Code": "A1C1",
            "Type": "Fast"
        },
        {
            "ID": 129397,
            "Title": "Lidl Marjamäki",
            "AddressLine1": "Realparkinkatu 1",
            "Town": "Lempäälä",
            "StateOrProvince": null,
            "Postcode": "37570",
            "Latitude": 61.3674610622602,
            "Longitude": 23.8003178712979,
            "PowerKW": 22.0,
            "Status": "Free",
            "Code": "B4C3",
            "Type": "Slow"
        },
        {
            "ID": 129194,
            "Title": "Hirsala Golf",
            "AddressLine1": "Hirsalantie 215",
            "Town": "Jorvas",
            "StateOrProvince": null,
            "Postcode": "2420",
            "Latitude": 60.118454,
            "Longitude": 24.523133,
            "PowerKW": 50.0,
            "Status": "Free",
            "Code": "B4D3",
            "Type": "Fast"
        },
        {
            "ID": 129182,
            "Title": "Holiday Club Saariselkä",
            "AddressLine1": "Saariseläntie 7",
            "Town": "Saariselkä",
            "StateOrProvince": null,
            "Postcode": "99830",
            "Latitude": 66.001533,
            "Longitude": 29.166434,
            "PowerKW": 22.0,
            "Status": "Free",
            "Code": "B4A3",
            "Type": "Slow"
        },
        {
            "ID": 99641,
            "Title": "Lapland Hotels Oulu",
            "AddressLine1": "Kirkkokatu 3",
            "Town": "Oulu",
            "StateOrProvince": null,
            "Postcode": "90100",
            "Latitude": 65.015344,
            "Longitude": 25.475991,
            "PowerKW": 22.0,
            "Status": "Free",
            "Code": "C2F5",
            "Type": "Slow"
        },
        {
            "ID": 56721,        
            "Title": "Kivisydän",
            "AddressLine1": "Hallituskatu 20",
            "Town": "Oulu Keskus",
            "StateOrProvince": "Pohjois-Pohjanmaa",
            "Postcode": "90100",
            "Latitude": 65.01227,
            "Longitude": 25.47637,
            "PowerKW": 50.0,
            "Status": "Free",
            "Code": "A44A",
            "Type": "Fast"
        },
        {
            "ID": 31071,
            "Title": "Pilot Business Park",
            "AddressLine1": "lentokatu 2",
            "Town": "Oulunsalo Keskus",
            "StateOrProvince": "Pohjois-Pohjanmaa",
            "Postcode": "90460",
            "Latitude": 64.93118044,
            "Longitude": 25.3854529,
            "PowerKW": 50.0,
            "Status": "Free",
            "Code": "A82C",
            "Type": "Fast"
        },
        {
            "ID": 31076,
            "Title": "P-Stockmann / Oulu",
            "AddressLine1": "Kirkkokatu 14",
            "Town": "Oulu Keskus",
            "StateOrProvince": "Pohjois-Pohjanmaa",
            "Postcode": "90100",
            "Latitude": 65.01134,
            "Longitude": 25.46974,
            "PowerKW": 50.0,
            "Status": "Free",
            "Code": "V123",
            "Type": "Fast"
        },
        {
            "ID": 24352,
            "Title": "ABC Prisma Limingantulli",
            "AddressLine1": "Nuottasaarentie",
            "Town": "Oulu",
            "StateOrProvince": "Pohjois-Pohjanmaa",
            "Postcode": "90400",
            "Latitude": 64.9941428394985,
            "Longitude": 25.461836250206016,
            "PowerKW": 22.0,
            "Status": "Free",
            "Code": "NH13",
            "Type": "Slow"
        },
        {
            "ID": 128914,
            "Title": "Burger King Keljo",
            "AddressLine1": "Kylmälahdentie 11",
            "Town": "Jyväskylä",
            "StateOrProvince": "Jyväskylä sub-region",
            "Postcode": "FI-40500",
            "Latitude": 62.2170104367588,
            "Longitude": 25.7176069085234,
            "PowerKW": 50.0,
            "Status": "Free",
            "Code": "QW3E",
            "Type": "Fast"
        },
        {
            "ID": 128830,
            "Title": "Lidl Marjamäki",
            "AddressLine1": "Realparkinkatu 1",
            "Town": "Lempäälä",
            "StateOrProvince": null,
            "Postcode": "37570",
            "Latitude": 61.367789,
            "Longitude": 23.799214,
            "PowerKW": 22.0,
            "Status": "Free",
            "Code": "Z2XW",
            "Type": "Slow"
        },
        {
            "ID": 128827,
            "Title": "K-supermarket Säkylä",
            "AddressLine1": "Palomiehentie 9",
            "Town": "Säkylä",
            "StateOrProvince": null,
            "Postcode": "27800",
            "Latitude": 61.0454409008521,
            "Longitude": 22.3574957545728,
            "PowerKW": 50.0,
            "Status": "Free",
            "Code": "VBNT",
            "Type": "Fast"
        },
        {
            "ID": 128819,
            "Title": "K-Citymarket Westeri",
            "AddressLine1": "Tesomankatu 4",
            "Town": "Tampere",
            "StateOrProvince": null,
            "Postcode": "33310",
            "Latitude": 61.5051881346708,
            "Longitude": 23.6281921264729,
            "PowerKW": 22.0,
            "Status": "Free",
            "Code": "MC18",
            "Type": "Slow"
        }
    ]
}